{
"type": "FeatureCollection",
"crs": { "type": "name", "properties": { "name": "urn:ogc:def:crs:OGC:1.3:CRS84" } },
"features": [
{ "type": "Feature", "properties": { "addr": "松江 车墩 金地 新乐里 ", "price": "3.6W+", "visit": "1", "wiki": "https://junxnone.github.io/F/#/0021_%E4%B8%80%E6%89%8B%E6%88%BF_%E6%9D%BE%E6%B1%9F%E8%BD%A6%E5%A2%A9_%E9%87%91%E5%9C%B0%E6%96%B0%E4%B9%90%E9%87%8C" }, "geometry": { "type": "Point", "coordinates": [ 121.322709, 31.023595 ] } },
{ "type": "Feature", "properties": { "addr": "奉贤 庄行 大名城 映雨江南 ", "price": "3W+", "visit": "1", "wiki": "https://junxnone.github.io/F/#/0022_%E4%B8%80%E6%89%8B%E6%88%BF_%E5%A5%89%E8%B4%A4%E5%BA%84%E8%A1%8C_%E5%A4%A7%E5%90%8D%E5%9F%8E%E6%98%A0%E9%9B%A8%E6%B1%9F%E5%8D%97" }, "geometry": { "type": "Point", "coordinates": [ 121.40403, 30.907324 ] } },
{ "type": "Feature", "properties": { "addr": "松江 泗泾 中国铁建 花语天境 ", "price": "4.8W+", "visit": "1", "wiki": "https://junxnone.github.io/F/#/0025_%E4%B8%80%E6%89%8B%E6%88%BF_%E6%9D%BE%E6%B1%9F%E6%B3%97%E6%B3%BE_%E8%8A%B1%E8%AF%AD%E5%A4%A9%E9%95%9C" }, "geometry": { "type": "Point", "coordinates": [ 121.25488, 31.133354 ] } },
{ "type": "Feature", "properties": { "addr": "松江 新城 金地 丰盛道 ", "price": "5.1W+", "visit": "1", "wiki": "https://junxnone.github.io/F/#/0027_%E4%B8%80%E6%89%8B%E6%88%BF_%E6%9D%BE%E6%B1%9F%E6%96%B0%E5%9F%8E_%E9%87%91%E5%9C%B0%E4%B8%B0%E7%9B%9B%E9%81%93" }, "geometry": { "type": "Point", "coordinates": [ 121.263418, 31.066532 ] } },
{ "type": "Feature", "properties": { "addr": "松江 新城 首创 禧瑞云庭 ", "price": "5.8W+", "visit": "1", "wiki": "https://junxnone.github.io/F/#/0028_%E4%B8%80%E6%89%8B%E6%88%BF_%E6%9D%BE%E6%B1%9F%E6%96%B0%E5%9F%8E_%E9%A6%96%E5%88%9B%E7%A6%A7%E7%91%9E%E4%BA%91%E5%BA%AD" }, "geometry": { "type": "Point", "coordinates": [ 121.223787, 31.067741 ] } },
{ "type": "Feature", "properties": { "addr": "闵行 吴泾 象屿招商公园1872 ", "price": "5.3W+", "visit": "1", "wiki": "https://junxnone.github.io/F/#/0032_%E4%B8%80%E6%89%8B%E6%88%BF_%E9%97%B5%E8%A1%8C%E5%90%B4%E6%B3%BE_%E8%B1%A1%E5%B1%BF%E6%8B%9B%E5%95%86%E5%85%AC%E5%9B%AD1872" }, "geometry": { "type": "Point", "coordinates": [ 121.47654, 31.039435 ] } },
{ "type": "Feature", "properties": { "addr": "青浦 赵巷 金地虹桥峯汇 ", "price": "5.2W+", "visit": "0", "wiki": "https://junxnone.github.io/F/#/0030_%E4%B8%80%E6%89%8B%E6%88%BF_%E9%9D%92%E6%B5%A6%E8%B5%B5%E5%B7%B7_%E9%87%91%E5%9C%B0%E8%99%B9%E6%A1%A5%E5%B3%AF%E6%B1%87" }, "geometry": { "type": "Point", "coordinates": [ 121.227478, 31.173005 ] } },
{ "type": "Feature", "properties": { "addr": "飞碟苑01 ", "price": "365W+", "visit": "1", "wiki": "https://junxnone.github.io/F/#/0051_%E4%BA%8C%E6%89%8B%E6%88%BF_%E9%A9%AC%E6%A1%A5_%E9%A3%9E%E7%A2%9F%E8%8B%91_01" }, "geometry": { "type": "Point", "coordinates": [ 121.401728765134692, 31.035706880944705 ] } },
{ "type": "Feature", "properties": { "addr": "飞碟苑02 带阁楼露台 ", "price": "4.8W/397W", "visit": "1", "wiki": "https://junxnone.github.io/F/#/0058_%E4%BA%8C%E6%89%8B%E6%88%BF_%E9%A9%AC%E6%A1%A5_%E9%A3%9E%E7%A2%9F%E8%8B%91_02" }, "geometry": { "type": "Point", "coordinates": [ 121.399545882745457, 31.032724757161958 ] } },
{ "type": "Feature", "properties": { "addr": "华银坊01 ", "price": "~", "visit": "1", "wiki": "https://junxnone.github.io/F/#/0055_%E4%BA%8C%E6%89%8B%E6%88%BF_%E9%A9%AC%E6%A1%A5_%E5%8D%8E%E9%93%B6%E5%9D%8A_01" }, "geometry": { "type": "Point", "coordinates": [ 121.399676137044395, 31.028191438934005 ] } },
{ "type": "Feature", "properties": { "addr": "夏朵园01 ", "price": "380W", "visit": "1", "wiki": "https://junxnone.github.io/F/#/0056_%E4%BA%8C%E6%89%8B%E6%88%BF_%E9%A9%AC%E6%A1%A5_%E5%A4%8F%E6%9C%B5%E5%9B%AD_01" }, "geometry": { "type": "Point", "coordinates": [ 121.402222833165183, 31.030148683263572 ] } },
{ "type": "Feature", "properties": { "addr": "夏朵园02 ", "price": "385W", "visit": "1", "wiki": "https://junxnone.github.io/F/#/0057_%E4%BA%8C%E6%89%8B%E6%88%BF_%E9%A9%AC%E6%A1%A5_%E5%A4%8F%E6%9C%B5%E5%9B%AD_02" }, "geometry": { "type": "Point", "coordinates": [ 121.400637323940074, 31.028709764509081 ] } }
]
}
